{
"type": "FeatureCollection",
"name": "India_AP_DB07_Resources_DiagnosticCentres_20200428_2102",
"crs": { "type": "name", "properties": { "name": "urn:ogc:def:crs:OGC:1.3:CRS84" } },
"features": [
{ "type": "Feature", "properties": { "DID": 1, "District": "Srikakulam", "City": "Srikakulam", "Diagnostic_Centre": "Medi Labs", "DCID": 1, "Diagnostic_Latitude": 18.296017, "Diagnostic_Longitude": 83.89716 }, "geometry": { "type": "Point", "coordinates": [ 83.89716, 18.29602 ] } },
{ "type": "Feature", "properties": { "DID": 3, "District": "Visakhapatnam", "City": "Vijayanagaram", "Diagnostic_Centre": "Thyrocare", "DCID": 2, "Diagnostic_Latitude": 18.110708, "Diagnostic_Longitude": 83.413636 }, "geometry": { "type": "Point", "coordinates": [ 83.41364, 18.11071 ] } },
{ "type": "Feature", "properties": { "DID": 3, "District": "Visakhapatnam", "City": "Visakapatnam", "Diagnostic_Centre": "Andhra Medical College, Visakhapatnam", "DCID": 3, "Diagnostic_Latitude": 17.706653, "Diagnostic_Longitude": 83.305037 }, "geometry": { "type": "Point", "coordinates": [ 83.30504, 17.70665 ] } },
{ "type": "Feature", "properties": { "DID": 4, "District": "East Godavari", "City": "Kakinada", "Diagnostic_Centre": "Rangaraya Medical College, Kakinada", "DCID": 4, "Diagnostic_Latitude": 16.979518, "Diagnostic_Longitude": 82.23729 }, "geometry": { "type": "Point", "coordinates": [ 82.23729, 16.97952 ] } },
{ "type": "Feature", "properties": { "DID": 4, "District": "East Godavari", "City": "Rajahmundry", "Diagnostic_Centre": "Bharat Diagnostic Centre", "DCID": 5, "Diagnostic_Latitude": 17.008851, "Diagnostic_Longitude": 81.78226 }, "geometry": { "type": "Point", "coordinates": [ 81.78226, 17.00885 ] } },
{ "type": "Feature", "properties": { "DID": 5, "District": "West Godavari", "City": "West Godavari", "Diagnostic_Centre": "Rohini Diagnostic Laboratory", "DCID": 6, "Diagnostic_Latitude": 17.014893, "Diagnostic_Longitude": 81.725168 }, "geometry": { "type": "Point", "coordinates": [ 81.72517, 17.01489 ] } },
{ "type": "Feature", "properties": { "DID": 6, "District": "Krishna", "City": "Vijayawada", "Diagnostic_Centre": "Sidhartha Medical College, Vijaywada", "DCID": 7, "Diagnostic_Latitude": 16.517455, "Diagnostic_Longitude": 80.671325 }, "geometry": { "type": "Point", "coordinates": [ 80.67132, 16.51746 ] } },
{ "type": "Feature", "properties": { "DID": 6, "District": "Krishna", "City": "Vijayawada", "Diagnostic_Centre": "Srimata Diagnostics", "DCID": 8, "Diagnostic_Latitude": 16.522194, "Diagnostic_Longitude": 80.631938 }, "geometry": { "type": "Point", "coordinates": [ 80.63194, 16.52219 ] } },
{ "type": "Feature", "properties": { "DID": 7, "District": "Guntur", "City": "Guntur", "Diagnostic_Centre": "Guntur Medical College, Guntur", "DCID": 9, "Diagnostic_Latitude": 16.29821, "Diagnostic_Longitude": 80.43814 }, "geometry": { "type": "Point", "coordinates": [ 80.43814, 16.29821 ] } },
{ "type": "Feature", "properties": { "DID": 7, "District": "Guntur", "City": "Guntur", "Diagnostic_Centre": "Jaya Diagnostic Centre", "DCID": 10, "Diagnostic_Latitude": 16.297194, "Diagnostic_Longitude": 80.448195 }, "geometry": { "type": "Point", "coordinates": [ 80.44819, 16.29719 ] } },
{ "type": "Feature", "properties": { "DID": 8, "District": "Prakasam", "City": "Ongole", "Diagnostic_Centre": "Rims Hospital", "DCID": 11, "Diagnostic_Latitude": 15.490881, "Diagnostic_Longitude": 80.051596 }, "geometry": { "type": "Point", "coordinates": [ 80.0516, 15.49088 ] } },
{ "type": "Feature", "properties": { "DID": 9, "District": "Nellore", "City": "Nellore", "Diagnostic_Centre": "Aswini Diagnostic Centre", "DCID": 12, "Diagnostic_Latitude": 14.451164, "Diagnostic_Longitude": 79.986261 }, "geometry": { "type": "Point", "coordinates": [ 79.98626, 14.45116 ] } },
{ "type": "Feature", "properties": { "DID": 10, "District": "Kadapa", "City": "Kadapa", "Diagnostic_Centre": "Rajiv Gandhi Institute Of Medical Sciences, Kadapa", "DCID": 13, "Diagnostic_Latitude": 14.433359, "Diagnostic_Longitude": 78.863268 }, "geometry": { "type": "Point", "coordinates": [ 78.86327, 14.43336 ] } },
{ "type": "Feature", "properties": { "DID": 12, "District": "Anantapur", "City": "Ananthpur", "Diagnostic_Centre": "Government Medical College, Ananthpur", "DCID": 14, "Diagnostic_Latitude": 14.671208, "Diagnostic_Longitude": 77.592872 }, "geometry": { "type": "Point", "coordinates": [ 77.59287, 14.67121 ] } },
{ "type": "Feature", "properties": { "DID": 13, "District": "Chittoor", "City": "Tirupati", "Diagnostic_Centre": "Sri Venkateswara Institute Of Medical Sciences", "DCID": 15, "Diagnostic_Latitude": 13.638102, "Diagnostic_Longitude": 79.404083 }, "geometry": { "type": "Point", "coordinates": [ 79.40408, 13.6381 ] } }
]
}
